{"type":"FeatureCollection", "features": [
    {"type":"Feature","geometry":{"type":"Point","coordinates":[78.37858206,17.43400965]},"properties":{"Latitude":17.43400965,"Longitude":78.37858206,"CompanyName":"GeoInfy Solutions Private Limited","Address":"Foundation, T Hub Phase-2, Silpa Gram Craft Village, Madhapur, Hyderabad, Telangana 500081","Scheme":"Call for proposal IITTNiF"}},
    {"type":"Feature","geometry":{"type":"Point","coordinates":[78.4607492,17.49488367]},"properties":{"Latitude":17.49488367,"Longitude":78.4607492,"CompanyName":"Abhaya Soft","Address":"Abhay Softwares, 601, Balajitowers, Prime hospital lane, near mythrivanam, Ameerpet, Hyderabad 500038","Scheme":"Call for proposal IITTNiF"}},
    {"type":"Feature","geometry":{"type":"Point","coordinates":[77.53987239,13.00963526]},"properties":{"Latitude":13.00963526,"Longitude":77.53987239,"CompanyName":"BhuhPramaan","Address":"10/14, 5th Cross Rd, Ganesha Block, Nandini Layout, Bengaluru, Karnataka 560096","Scheme":"Call for proposal IITTNiF"}},
    {"type":"Feature","geometry":{"type":"Point","coordinates":[77.21812541,28.57167375]},"properties":{"Latitude":28.57167375,"Longitude":77.21812541,"CompanyName":"Vayunav Technologies","Address":"N 18, South Extension I, Block N, New Delhi, Delhi 110003","Scheme":"Call for proposal IITTNiF"}},
    {"type":"Feature","geometry":{"type":"Point","coordinates":[88.38417837,22.45246598]},"properties":{"Latitude":22.45246598,"Longitude":88.38417837,"CompanyName":"NIL Prithibi Technology Pvt Ltd","Address":"157/212, Rabindra Nagar Rd, Laskarpur, Garia Gardens, Rabindra Nagar, Kolkata, West Bengal 700153","Scheme":"Call for proposal IITTNiF"}},
    {"type":"Feature","geometry":{"type":"Point","coordinates":[77.21825998,28.57077873]},"properties":{"Latitude":28.57077873,"Longitude":77.21825998,"CompanyName":"AQILA TECHNOLOGIES AND INTEGRATION SOLUTIONS PVT LTD","Address":"E-18, 3rd floor, NDSE, New Delhi, South Delhi, Delhi 110049","Scheme":"Call for proposal IITTNiF"}},
    {"type":"Feature","geometry":{"type":"Point","coordinates":[73.78810679,18.59619697]},"properties":{"Latitude":18.59619697,"Longitude":73.78810679,"CompanyName":"GISKernel Technologies Pvt Ltd","Address":"501, Rainbow Plaza 3rd, Kunal Icon Rd, Sunshine Villas, Dwarkadheesh Gardens, Pimple Saudagar, Mana-mandir Society, Rahatani, Pimpri-Chinchwad, Maharashtra 411027","Scheme":"Call for proposal IITTNiF"}},
    {"type":"Feature","geometry":{"type":"Point","coordinates":[80.19418715,13.05118053]},"properties":{"Latitude":13.05118053,"Longitude":80.19418715,"CompanyName":"High Performance Engineering & Research Pvt Ltd","Address":"9FK Jains, Kences Retreat 15 Reddy Street, Virugambakkam, Chennai, Tamil Nadu 600092","Scheme":"Call for proposal IITTNiF"}},
    {"type":"Feature","geometry":{"type":"Point","coordinates":[77.89643947,29.86376716]},"properties":{"Latitude":29.86376716,"Longitude":77.89643947,"CompanyName":"Bhoomicam Pvt. Ltd","Address":"TIDES 2nd & 3rd Floor, Bio-Incubator, MAC Rd, Indian Institute of Technology Roorkee, Roorkee, Uttarakhand 247667","Scheme":"Discovery/SARATHI/Smart GIS"}},
    {"type":"Feature","geometry":{"type":"Point","coordinates":[78.3559129,17.39976672]},"properties":{"Latitude":17.39976672,"Longitude":78.3559129,"CompanyName":"Garudalytics Private Limited","Address":"My Home Avatar, B10-1404, DLF New Heights Gachibowli Extension, Narsingi, Puppalguda, Hyderabad, Telangana 500089","Scheme":"Discovery/SARATHI/Smart GIS"}},
    {"type":"Feature","geometry":{"type":"Point","coordinates":[78.01107108,30.31519413]},"properties":{"Latitude":30.31519413,"Longitude":78.01107108,"CompanyName":"R2E Technologies Private Limited","Address":"General Mahadev Singh Rd, Nehru Enclave, Satya Vihar, Janakpuri, Dehradun, Uttarakhand 248001","Scheme":"Discovery/SARATHI/Smart GIS"}},
    {"type":"Feature","geometry":{"type":"Point","coordinates":[78.43550431,17.56900665]},"properties":{"Latitude":17.56900665,"Longitude":78.43550431,"CompanyName":"Harvested Robotics","Address":"Mahindra University, Survey No: 62/1A, Bahadurpally, Hyderabad, Telangana 500043","Scheme":"Discovery/SARATHI/Smart GIS"}},
    {"type":"Feature","geometry":{"type":"Point","coordinates":[76.81723869,17.29222805]},"properties":{"Latitude":17.29222805,"Longitude":76.81723869,"CompanyName":"Rootskart Agritech Pvt Ltd","Address":"Plot No. 37, Sangameshwara Nilaya Bharat Gunj Colony Kalaburgi Gulbarga KA 585104 IN","Scheme":"Discovery/SARATHI/Smart GIS"}},
    {"type":"Feature","geometry":{"type":"Point","coordinates":[72.69036563,23.21861258]},"properties":{"Latitude":23.21861258,"Longitude":72.69036563,"CompanyName":"Argocast","Address":"INDIAN INSTITUTE OF TECHNOLOGY, Research Park, Palaj, Gujarat 382355","Scheme":"Discovery/SARATHI/Smart GIS"}},
    {"type":"Feature","geometry":{"type":"Point","coordinates":[77.5431291,12.93372508]},"properties":{"Latitude":12.93372508,"Longitude":77.5431291,"CompanyName":"Sparkyai Private Limited","Address":"585, 2nd Main Rd, 2nd Phase, Hosakerehalli Layout, Banashankari 1st Stage, Banashankari, Bengaluru, Karnataka 560085","Scheme":"Discovery/SARATHI/Smart GIS"}},
    {"type":"Feature","geometry":{"type":"Point","coordinates":[85.73576061,20.21950711]},"properties":{"Latitude":20.21950711,"Longitude":85.73576061,"CompanyName":"bonv Aero","Address":"CV Raman Global University Vidyanagar, Mahura, Janla, Bhubaneswar, Odisha 752054","Scheme":"Discovery/SARATHI/Smart GIS"}},
    {"type":"Feature","geometry":{"type":"Point","coordinates":[77.58381128,12.92463484]},"properties":{"Latitude":12.92463484,"Longitude":77.58381128,"CompanyName":"Spaceinf","Address":"Kamaladev Towers,35th Cross Road, Jayanagar 4th Block, Bengaluru.","Scheme":"Discovery/SARATHI/Smart GIS"}},
    {"type":"Feature","geometry":{"type":"Point","coordinates":[77.75249549,8.768538693]},"properties":{"Latitude":8.768538693,"Longitude":77.75249549,"CompanyName":"Thazhal","Address":"No: 9, 1st Main Rd, Kamatchi Nagar, Tirusulam, Chennai, St.Thomas Mount-cum-Pallavaram, Tamil Nadu 600117","Scheme":"Discovery/SARATHI/Smart GIS"}},
    {"type":"Feature","geometry":{"type":"Point","coordinates":[77.12118835,28.5412901]},"properties":{"Latitude":28.5412901,"Longitude":77.12118835,"CompanyName":"Aaravi EngiVentures Private Limited","Address":"Plot No.2, KH. No. 143 Shyam Vihar, B- Block, Deendarpur New Delhi New Delhi DL 110043 IN","Scheme":"VIKAS"}},
    {"type":"Feature","geometry":{"type":"Point","coordinates":[78.42603095,17.48006642]},"properties":{"Latitude":17.48006642,"Longitude":78.42603095,"CompanyName":"AccelUAV Private Limited","Address":"Plot no 7A, Prashanth Nagar, IDA Kukatpally, Kukatpally, Hyderabad, Telangana 500072","Scheme":"VIKAS"}},
    {"type":"Feature","geometry":{"type":"Point","coordinates":[80.64012271,16.51223095]},"properties":{"Latitude":16.51223095,"Longitude":80.64012271,"CompanyName":"DroneHub Technologies Pvt Ltd","Address":"40-3/1-46/4c, Revenue Ward 13, Moghalrajpuram, Krishna, Vijayawada (urban), Andhra Pradesh, India, 520010","Scheme":"VIKAS"}},
    {"type":"Feature","geometry":{"type":"Point","coordinates":[79.08873267,21.17909467]},"properties":{"Latitude":21.17909467,"Longitude":79.08873267,"CompanyName":"dhundhoo","Address":"Jaripatka, Nagpur, Maharashtra 440014","Scheme":"VIKAS"}},
    {"type":"Feature","geometry":{"type":"Point","coordinates":[74.84987361,12.88041184]},"properties":{"Latitude":12.88041184,"Longitude":74.84987361,"CompanyName":"Finclus technology pvt Ltd","Address":"A1209 Maurisha Park Kodialbai Managalore Opp Sharad Managalore Dakshina Kannada KA 575003 IN","Scheme":"VIKAS"}},
    {"type":"Feature","geometry":{"type":"Point","coordinates":[73.7797878,18.5156321]},"properties":{"Latitude":18.5156321,"Longitude":73.7797878,"CompanyName":"Guardinger Advanced Technologies Private Limited","Address":"Fortune Plaza, Dr. Homi Bhabha Rd, Sagar Co-Operative Housing Society, Bavdhan, Pune, Maharashtra 411021","Scheme":"VIKAS"}},
    {"type":"Feature","geometry":{"type":"Point","coordinates":[77.13484,28.6937]},"properties":{"Latitude":28.6937,"Longitude":77.13484,"CompanyName":"Sensefly Innovations Private Limited","Address":"202, 2nd Floor, Aggarwal Corporates Height, Netaji Subhash Place, Pitampura, New Delhi, Delhi 110034","Scheme":"VIKAS"}},
    {"type":"Feature","geometry":{"type":"Point","coordinates":[76.9980157,28.89952588]},"properties":{"Latitude":28.89952588,"Longitude":76.9980157,"CompanyName":"Simultaneous Geographical Reality labs Private","Address":"Moti Vihar, Sector 41, Gurugram, Haryana 122022","Scheme":"VIKAS"}},
    {"type":"Feature","geometry":{"type":"Point","coordinates":[77.60087855,12.92778574]},"properties":{"Latitude":12.92778574,"Longitude":77.60087855,"CompanyName":"Upciti Private Limited","Address":"Tarun Bajaj. No 128, Kanhaiya Kunj Classic Orchards, Phase-2, BG Road, Bengaluru Urban Bengaluru - 560076. Karnataka, India.","Scheme":"VIKAS"}},
    {"type":"Feature","geometry":{"type":"Point","coordinates":[77.57327257,12.87631945]},"properties":{"Latitude":12.87631945,"Longitude":77.57327257,"CompanyName":"Xtragen technologies pvt ltd","Address":"Plot no. 44, Gayatri Building, 201, 8, Royal Lakefront Residency Phase 3, J. P. Nagar, Bengaluru, Karnataka 560076","Scheme":"VIKAS"}},
    {"type":"Feature","geometry":{"type":"Point","coordinates":[77.55,28.35]},"properties":{"Latitude":28.35,"Longitude":77.55,"CompanyName":"AgBoost Tech Consultancy","Address":"T/22, P4, SENIOR CITIZEN SOCIETY, NEAR AWHO SOCIETY, GREATER NOIDA gautam buddha nagar uttar pradesh 201310 india","Scheme":"VIKAS"}},
    {"type":"Feature","geometry":{"type":"Point","coordinates":[77.40551401,28.50526568]},"properties":{"Latitude":28.50526568,"Longitude":77.40551401,"CompanyName":"X Dimension Robotics Pvt Ltd","Address":"3rd Unit, Riana Aurelia, Plot 93-94, Sector 136, Noida, Uttar Pradesh 201305","Scheme":"VIKAS"}},
    {"type":"Feature","geometry":{"type":"Point","coordinates":[78.39368852,17.4814959]},"properties":{"Latitude":17.4814959,"Longitude":78.39368852,"CompanyName":"TaraUAV","Address":"F9JV+GF7, opp. Gowtham Model School, near Brand Factory, KPHB 5th Phase, Kukatpally, Hyderabad, Telangana 500072","Scheme":"VIKAS"}}
    ]}
    